{"name":"American Health Packaging","address":"24 Cordelia Court","long":117.3616476,"lat":39.3433574,"open":480,"close":1020}
{"name":"Mylan Institutional Inc.","address":"7092 Anniversary Way","long":23.5370533,"lat":58.9482486,"open":480,"close":1020}
{"name":"AMI Cosmetic Co.,Ltd.","address":"14 Fordem Avenue","long":18.5517476,"lat":53.8819853,"open":480,"close":1020}
{"name":"Avon Products, Inc","address":"7 Fairfield Park","long":121.770825,"lat":24.6755872,"open":480,"close":1020}
{"name":"Preferred Pharmaceuticals, Inc.","address":"85478 Marquette Avenue","long":-100.4277766,"lat":25.8007724,"open":480,"close":1020}
{"name":"Rimmel Inc.","address":"63 Annamark Point","long":100.0359661,"lat":19.9034294,"open":480,"close":1020}
{"name":"Alcon Laboratories, Inc.","address":"93562 Mariners Cove Parkway","long":117.526125,"lat":34.390575,"open":480,"close":1020}
{"name":"Physicians Total Care, Inc.","address":"72697 Maple Hill","long":-79.4056784,"lat":-2.3286839,"open":480,"close":1020}
{"name":"Racinne (Hong Kong) Limited","address":"8 Harbort Way","long":116.952766,"lat":31.466526,"open":480,"close":1020}
{"name":"Delon Laboratories (1990) Ltd","address":"941 Buena Vista Lane","long":121.682569,"lat":50.480431,"open":480,"close":1020}